{
  "infos": [
    {
      "city": "深圳市",
      "district": "罗湖区",
      "name": "中发源(春风路店)",
      "location": "南极路与春风路交汇处向西大厦北侧前行50米",
      "phone": "0755-82229318",
      "traffic": "2号线：湖北路A出口步行220m",
      "coordinate": "114.126938,22.542662",
      "formattedAddress": "广东省深圳市罗湖区向西大厦"
    },
    {
      "city": "深圳市",
      "district": "罗湖区",
      "name": "夏雪花1",
      "location": "深圳市人民南路2011号联华大厦1楼南面",
      "phone": "0755-82233586",
      "traffic": "9号线：人民南站C出口步行270m",
      "coordinate": "114.118318,22.536721",
      "formattedAddress": "广东省深圳市罗湖区联华大厦"
    },
    {
      "city": "深圳市",
      "district": "罗湖区",
      "name": "夏雪花2",
      "location": "深圳市嘉宾路1017号向西村粤鹏大厦1楼",
      "phone": "0755-82171233",
      "traffic": "9号线：向西村站D1出口步行300m",
      "coordinate": "114.124224,22.541076",
      "formattedAddress": "广东省深圳市罗湖区粤鹏大厦"
    },
    {
      "city": "深圳市",
      "district": "罗湖区",
      "name": "穆卡牧西域美食",
      "location": "深圳市红宝路1002号寰宇大酒店配楼一楼",
      "phone": 17609049297,
      "traffic": "1、2号线：大剧院B出口步行610m",
      "coordinate": "114.105212,22.544152",
      "formattedAddress": "广东省深圳市罗湖区寰宇大酒店"
    },
    {
      "city": "深圳市",
      "district": "罗湖区",
      "name": "亚克西餐厅",
      "location": "深圳市春风路1005号锦星花园4座102室",
      "phone": 15999579700,
      "traffic": "9号线：文锦站C出口步行260m",
      "coordinate": "114.132516,22.542420",
      "formattedAddress": "广东省深圳市罗湖区锦星花园|4栋"
    },
    {
      "city": "深圳市",
      "district": "罗湖区",
      "name": "穆斯林宾馆",
      "location": "深圳市文锦南路2013号",
      "phone": 13603065492,
      "traffic": "9号线：文锦站D出口步行270m",
      "coordinate": "114.130472,22.543524",
      "formattedAddress": "广东省深圳市罗湖区文锦南路2013号"
    },
    {
      "city": "深圳市",
      "district": "罗湖区",
      "name": "耶利米娅西域主题餐厅",
      "location": "深圳市春风路与文锦南路交汇处联城联合大厦首层",
      "phone": "0755-22952619",
      "traffic": "9号线：文锦站B出口步行170m",
      "coordinate": "114.131817,22.542249",
      "formattedAddress": "广东省深圳市罗湖区联城联合大厦"
    },
    {
      "city": "深圳市",
      "district": "福田区",
      "name": "新粤塔里木河",
      "location": "深圳市同心南路1号",
      "phone": "0755-25870698",
      "traffic": "9号线：红岭南站C出口步行870m",
      "coordinate": "114.319689,22.761211",
      "formattedAddress": "广东省深圳市福田区同心南路|1号"
    },
    {
      "city": "深圳市",
      "district": "罗湖区",
      "name": "印度宫廷美食",
      "location": "深圳市人民南路2011号联华大厦1楼（佳宁娜广场对面）",
      "phone": "0755-82362782",
      "traffic": "9号线：人民南站C出口步行250m",
      "coordinate": "114.118318,22.536721",
      "formattedAddress": "广东省深圳市罗湖区联华大厦"
    },
    {
      "city": "深圳市",
      "district": "罗湖区",
      "name": "清真米小鸡·脆皮鸡米饭",
      "location": "罗湖区桂园街道佳木园社区解放路3084号",
      "phone": 13025418181,
      "coordinate": "114.111595,22.544052",
      "formattedAddress": "广东省深圳市罗湖区桂园街道湖滨社区解放路3084号"
    },
    {
      "city": "深圳市",
      "district": "罗湖区",
      "name": "哈赛羊肉串・清真餐厅",
      "location": "罗湖区桂园北路振业市场首层1002",
      "phone": "0755-25575705/18666823326",
      "coordinate": "114.112138,22.550400",
      "formattedAddress": "广东省深圳市罗湖区振业市场"
    },
    {
      "city": "深圳市",
      "district": "罗湖区",
      "name": "伊味源麻辣烫",
      "location": "罗湖区文锦南路2003号伊哈雅清真超市旁边",
      "phone": 13266802159,
      "intro": "因疫情倒闭",
      "traffic": "9号线：文锦南路D出口",
      "coordinate": "114.130500,22.542789",
      "formattedAddress": "广东省深圳市罗湖区文锦南路2003号伊哈雅清真超市"
    },
    {
      "city": "深圳市",
      "district": "罗湖区",
      "name": "伊哈雅清真超市",
      "location": "罗湖区文锦南路2005号",
      "traffic": "9号线：文锦南路D出口",
      "coordinate": "114.130519,22.542726",
      "formattedAddress": "广东省深圳市罗湖区文锦南路2005号"
    },
    {
      "city": "深圳市",
      "district": "罗湖区",
      "name": "麦优坊清真超市",
      "location": "罗湖区黄贝路荷花市场A1",
      "phone": "0577-25417609",
      "traffic": "5号线怡景站A出口斜对面",
      "coordinate": "114.139638,22.554825",
      "formattedAddress": "广东省深圳市罗湖区荷花市场|A|1"
    },
    {
      "city": "深圳市",
      "district": "罗湖区",
      "name": "伊清西北面店",
      "location": "罗湖区文锦北路1155号",
      "phone": "0755-22925155",
      "traffic": "7号线：洪湖站C2出口",
      "coordinate": "114.122120,22.564937",
      "formattedAddress": "广东省深圳市罗湖区文锦北路1155号"
    },
    {
      "city": "深圳市",
      "district": "罗湖区",
      "name": "西北面点",
      "location": "罗湖区文锦南路2018号金安大厦后面",
      "intro": "清真烧烤火锅面点快餐",
      "traffic": "9号线文锦站C出口",
      "coordinate": "114.131819,22.544191",
      "formattedAddress": "广东省深圳市罗湖区文锦南路2018号金安大厦(东北门)"
    },
    {
      "city": "深圳市",
      "district": "罗湖区",
      "name": "中发源·深南店",
      "location": "罗湖区深南东路2011号万科里大厦2层",
      "intro": "有早茶",
      "traffic": "罗湖区深南东路2011号万科里大厦2层\r\n\r\n2号线湖贝站A出口 9号线文锦D出口",
      "coordinate": "114.128857,22.544253",
      "formattedAddress": "广东省深圳市罗湖区深南东路2011号"
    },
    {
      "city": "深圳市",
      "district": "罗湖区",
      "name": "梦·楼兰",
      "location": "罗湖区嘉宾路4005号水运大厦2楼",
      "intro": "新疆菜",
      "traffic": "地铁：1号线国贸站E出口480m",
      "coordinate": "114.114436,22.538741",
      "formattedAddress": "广东省深圳市罗湖区水运大厦"
    },
    {
      "city": "深圳市",
      "district": "罗湖区",
      "name": "西北人家茶餐厅",
      "location": "罗湖区新安路文星花园二楼19号",
      "phone": 13893612223,
      "traffic": "地铁;1号线国茂站1300m",
      "coordinate": "114.127983,22.540443",
      "formattedAddress": "广东省深圳市罗湖区文星花园|2栋"
    },
    {
      "city": "深圳市",
      "district": "罗湖区",
      "name": "古牧西羊新疆味道（莲塘店）",
      "location": "罗湖区莲塘国威路72号莲塘第一工业区101栋",
      "phone": 13122050055,
      "traffic": "地铁：2号线莲塘站D出口230m",
      "coordinate": "114.170781,22.564244",
      "formattedAddress": "广东省深圳市罗湖区莲塘第一工业区|101栋"
    },
    {
      "city": "深圳市",
      "district": "罗湖区",
      "name": "雪莲美食",
      "location": "罗湖区春风路东1034号(近北斗小学)",
      "phone": "0755 2511 5536",
      "coordinate": "114.134053,22.543442",
      "formattedAddress": "广东省深圳市罗湖区春风路1034号深圳市北斗小学"
    },
    {
      "city": "深圳市",
      "district": "罗湖区",
      "name": "西海拾光",
      "location": "罗湖区招商开元2栋B座1199铺",
      "phone": 13530135503,
      "traffic": "地铁:7号线红岭北站J出口545m",
      "coordinate": "114.131764,22.548171",
      "formattedAddress": "广东省深圳市罗湖区"
    },
    {
      "city": "深圳市",
      "district": "福田区",
      "name": "深圳清真寺",
      "location": "深圳市福田区梅林路7号",
      "traffic": "9号线：孖玲站C出口对面200m",
      "coordinate": "114.070036,22.567936",
      "formattedAddress": "广东省深圳市福田区梅林路7号"
    },
    {
      "city": "深圳市",
      "district": "福田区",
      "name": "伊甸园云南菜",
      "location": "深圳市上梅林14号搪瓷公司宿舍一楼商铺",
      "phone": "0755-23947439",
      "intro": "黄牛干巴、 柠檬鸡",
      "traffic": "9号线：孖玲站C出口步行330m",
      "coordinate": "114.090222,22.538195",
      "formattedAddress": "广东省深圳市福田区一楼乡商铺"
    },
    {
      "city": "深圳市",
      "district": "福田区",
      "name": "天山来客",
      "location": "福田街道梅林路3号(蓝天绿都家园)深圳清真寺正门左侧",
      "phone": 18794676984,
      "intro": "椒麻鸡、干锅土豆片、铁板粉丝、",
      "traffic": "9号线：孖玲站C出口步行350m",
      "coordinate": "114.070517,22.567950",
      "formattedAddress": "广东省深圳市福田区深圳市清真寺"
    },
    {
      "city": "深圳市",
      "district": "福田区",
      "name": "西北领头羊",
      "location": "深圳市梅林路金丰花园108-115号清真寺旁",
      "phone": "0755-82712905",
      "traffic": "9号线：孖玲站C出口对面",
      "coordinate": "114.070517,22.567950",
      "formattedAddress": "广东省深圳市福田区深圳市清真寺"
    },
    {
      "city": "深圳市",
      "district": "福田区",
      "name": "疆小羊（梅林店）",
      "location": "福田区梅华路103号南鹏大厦KFC旁",
      "phone": "0755-85201006",
      "traffic": "地铁：4号线莲花北站B出口910m",
      "coordinate": "114.056235,22.564124",
      "formattedAddress": "广东省深圳市福田区南鹏大厦"
    },
    {
      "city": "深圳市",
      "district": "福田区",
      "name": "一面之缘",
      "location": "深圳市红荔西路香荔新村2栋底商",
      "phone": 18665929127,
      "traffic": "2号线：莲花西路A出口步行580m",
      "coordinate": "114.045348,22.547214",
      "formattedAddress": "广东省深圳市福田区香荔新村|2栋"
    },
    {
      "city": "深圳市",
      "district": "福田区",
      "name": "火焰山烧烤",
      "location": "深圳市福强路5269号",
      "phone": 13418854020,
      "traffic": "7号线：上沙站A出口步行480m",
      "coordinate": "114.030608,22.527558",
      "formattedAddress": "广东省深圳市福田区福强路5269号"
    },
    {
      "city": "深圳市",
      "district": "福田区",
      "name": "中发源(景田店)",
      "location": "深圳市景田路83号万托家园1楼(景田酒店对面)",
      "coordinate": "114.043380,22.552640",
      "formattedAddress": "广东省深圳市福田区万托家园|1楼"
    },
    {
      "city": "深圳市",
      "district": "福田区",
      "name": "梅夫娜拉土耳其餐厅(华强北店)",
      "location": "福田区振兴路154-6号（手表市场西）",
      "phone": "0755-8336877",
      "traffic": "2、7号线：华强北站C出口步行260m",
      "coordinate": "114.083037,22.546701",
      "formattedAddress": "广东省深圳市福田区振兴路154-6号"
    },
    {
      "city": "深圳市",
      "district": "福田区",
      "name": "伊兴园清真超市",
      "location": "福田区梅林路32-1(清真寺斜对面)",
      "phone": "0755-82552553",
      "intro": "火锅、炒菜、早餐",
      "traffic": "9号线：孖岭站C出口即到",
      "coordinate": "114.070036,22.567936",
      "formattedAddress": "广东省深圳市福田区梅林路32-1号深圳市清真寺"
    },
    {
      "city": "深圳市",
      "district": "福田区",
      "name": "帝王娜",
      "location": "深圳市南园路98号(巴基斯坦餐)",
      "phone": "0755-83639552",
      "traffic": "1号线：科学馆站C出口步行450m",
      "coordinate": "114.091726,22.538204",
      "formattedAddress": "广东省深圳市福田区南园路98号"
    },
    {
      "city": "深圳市",
      "district": "福田区",
      "name": "北家姓转转清真小火锅",
      "location": "福田区奥士达路奥士达大厦1楼",
      "phone": 19120433797,
      "intro": "小火锅",
      "traffic": "4号线：莲花北站B出口500m",
      "coordinate": "114.059766,22.564072",
      "formattedAddress": "广东省深圳市福田区奥士达大厦"
    },
    {
      "city": "深圳市",
      "district": "福田区",
      "name": "新疆红柳花餐厅",
      "location": "广东省深圳市福田区新洲北村55-1号",
      "phone": "0755-83879500",
      "intro": "过油肉拌面,干锅肚丝,红柳烤肉,自制酸奶,上汤娃娃菜,上汤菠菜,炒拉面,烤大排,维吾尔族粉汤",
      "coordinate": "114.046004,22.527537",
      "formattedAddress": "广东省深圳市福田区新洲北村55-1号"
    },
    {
      "city": "深圳市",
      "district": "福田区",
      "name": "深圳穆斯林宾馆清真餐厅",
      "location": "深圳市福田区福华三路与金田路交汇处深圳会展中心F1",
      "coordinate": "114.059812,22.530777",
      "formattedAddress": "广东省深圳市福田区深圳会展中心"
    },
    {
      "city": "深圳市",
      "district": "福田区",
      "name": "沙瓦吉",
      "location": "深圳福田区华强北街道赛格科技园2栋107",
      "phone": 15014008171,
      "coordinate": "114.088270,22.547340",
      "formattedAddress": "广东省深圳市福田区赛格科技园|2栋"
    },
    {
      "city": "深圳市",
      "district": "福田区",
      "name": "高原雪清真超市",
      "location": "深圳清真寺出门右拐20米，蓝天绿都家园首层17号商铺",
      "phone": "0755-83010993",
      "businessHours": "早9点-晚十点",
      "coordinate": "114.071282,22.568166",
      "formattedAddress": "广东省深圳市福田区蓝天绿都家园"
    },
    {
      "city": "深圳市",
      "district": "福田区",
      "name": "奴海新鲜牛羊肉批发零售",
      "location": "深圳市蓝天绿都家园3-7",
      "coordinate": "114.071028,22.567972",
      "formattedAddress": "广东省深圳市福田区蓝天绿都家园|3"
    },
    {
      "city": "深圳市",
      "district": "福田区",
      "name": "西北特色烧烤",
      "location": "深圳市华强北振中路114号",
      "coordinate": "114.090010,22.543019",
      "formattedAddress": "广东省深圳市福田区振中路|114"
    },
    {
      "city": "深圳市",
      "district": "福田区",
      "name": "FOOD VALLEY",
      "location": "深圳市福田区爱华路21号锦龙花园10号铺",
      "phone": "15712121472；15622880871",
      "intro": "烧烤是特色，国外穆斯林兄弟开的，确认是清真的。",
      "coordinate": "114.091263,22.536607",
      "formattedAddress": "广东省深圳市福田区锦龙花园"
    },
    {
      "city": "深圳市",
      "district": "福田区",
      "name": "东东开锅羊肉· 西北小馆",
      "location": "广东省深圳市福田区民田路138号城建购物公园北园三楼316-319",
      "phone": "马东东15120445671",
      "traffic": "地铁1/3号线购物公园站B口步行200m",
      "coordinate": "114.054533,22.536549",
      "formattedAddress": "广东省深圳市福田区购物公园北园|3楼"
    },
    {
      "city": "深圳市",
      "district": "福田区",
      "name": "白金街坊·清真菜",
      "location": "福田区华富街道新田社区彩田路3030号橄榄鹏苑B座一层136",
      "phone": 13070040337,
      "intro": "新疆特色菜，烧烤",
      "businessHours": "08:00-02;00",
      "traffic": "地铁：2号线岗厦北站Ａ口步行410m",
      "coordinate": "114.069117,22.542975",
      "formattedAddress": "广东省深圳市福田区橄榄鹏苑|B座"
    },
    {
      "city": "深圳市",
      "district": "福田区",
      "name": "疆来·新疆炒米粉",
      "location": "深圳市福田区沙头街道沙尾社区沙尾东村88号104",
      "phone": 15299820383,
      "traffic": "地铁：7号线沙尾站B出口80m",
      "coordinate": "114.042496,22.519947",
      "formattedAddress": "广东省深圳市福田区沙尾东村|88号楼"
    },
    {
      "city": "深圳市",
      "district": "福田区",
      "name": "Umami乌玛米披萨汉堡",
      "location": "广东省深圳市福田区红岭北路3001号满京华盈科1楼102铺",
      "phone": 18598252005,
      "intro": "手作披萨，美式汉堡，炸鸡等",
      "businessHours": "10:00-22:00",
      "traffic": "地铁：9号线红岭北站A出口步行200米",
      "coordinate": "114.103539,22.565454",
      "formattedAddress": "广东省深圳市福田区红岭北路3001号满京华·盈科"
    },
    {
      "city": "深圳市",
      "district": "福田区",
      "name": "古牧西羊新疆味道（梅林店）",
      "location": "福田区上梅林西横街梅村楼1楼103",
      "phone": 13590368117,
      "traffic": "地铁：9号线梅村站C1出口200m",
      "coordinate": "114.053472,22.566817",
      "formattedAddress": "广东省深圳市福田区上梅林上梅林西横街梅村楼1楼"
    },
    {
      "city": "深圳市",
      "district": "福田区",
      "name": "深星清真餐厅",
      "location": "福田区园岭东路1-4号",
      "traffic": "地铁:3/9号线红岭站E出口260m",
      "coordinate": "114.101980,22.550274",
      "formattedAddress": "广东省深圳市福田区园岭东路1-2号"
    },
    {
      "city": "深圳市",
      "district": "南山区",
      "name": "清真·伊兰堡汉堡餐厅",
      "location": "深圳市 南山区 华明路(近后海大道) 怡海花园6号商铺",
      "phone": 13922831841,
      "intro": "清真·伊兰堡汉堡餐厅",
      "coordinate": "113.930612,22.507191",
      "formattedAddress": "广东省深圳市南山区怡海花园"
    },
    {
      "city": "深圳市",
      "district": "南山区",
      "name": "巴记生态石锅鱼(清真餐厅)",
      "location": "深圳市南山区南头街道前海路一甲海边新村43号商铺",
      "intro": "巴记生态石锅鱼(清真餐厅)",
      "coordinate": "113.915370,22.538747",
      "formattedAddress": "广东省深圳市南山区一甲海边新村"
    },
    {
      "city": "深圳市",
      "district": "南山区",
      "name": "南油中发源",
      "location": "广东省深圳市南山区南海大道百富大厦2楼",
      "intro": "南油中发源",
      "coordinate": "113.925420,22.510479",
      "formattedAddress": "广东省深圳市南山区百富大厦"
    },
    {
      "city": "深圳市",
      "district": "南山区",
      "name": "‘三一妈妈’清真蛋糕烘焙",
      "location": "深圳市东滨路榆园1栋103B",
      "phone": 13922831841,
      "intro": "‘三一妈妈’清真蛋糕烘焙",
      "coordinate": "113.931220,22.504439",
      "formattedAddress": "广东省深圳市南山区榆园|1栋"
    },
    {
      "city": "深圳市",
      "district": "南山区",
      "name": "清真星月面点",
      "location": "深圳市南山区大冲270号",
      "intro": "清真星月面点",
      "coordinate": "113.951610,22.542797",
      "formattedAddress": "广东省深圳市南山区大冲"
    },
    {
      "city": "深圳市",
      "district": "南山区",
      "name": "西域风烧烤主题餐厅(马家龙店)",
      "location": "深圳市南头街道玉泉北路汇金家园B栋",
      "phone": 13410939994,
      "intro": "西域风烧烤主题餐厅(马家龙店)",
      "coordinate": "113.927721,22.547483",
      "formattedAddress": "广东省深圳市南山区汇金家园|B"
    },
    {
      "city": "深圳市",
      "district": "南山区",
      "name": "夏雪花(生态园店)",
      "location": "深圳湾科技生态园",
      "intro": "夏雪花(生态园店)",
      "coordinate": "113.952696,22.530438",
      "formattedAddress": "广东省深圳市南山区深圳湾科技生态园"
    },
    {
      "city": "深圳市",
      "district": "南山区",
      "name": "大拌新疆餐厅",
      "location": "深圳市粤海街道文心六路(分店在海上世界哈根达斯对面三楼)",
      "intro": "大拌新疆餐厅",
      "coordinate": "113.935609,22.517417",
      "formattedAddress": "广东省深圳市南山区哈根达斯"
    },
    {
      "city": "深圳市",
      "district": "南山区",
      "name": "西域风烧烤主题餐厅(大学城店)",
      "location": "深圳市桃源街道平山村299号()",
      "phone": 18693018912,
      "intro": "烧烤火锅烤鱼",
      "privateRoom": "有大包间",
      "traffic": "5号线：大学城站C口300m 公交：红花岭站400m",
      "coordinate": "113.967260,22.584257",
      "formattedAddress": "广东省深圳市南山区桃源街道平山村299号"
    },
    {
      "city": "深圳市",
      "district": "南山区",
      "name": "西域风烧烤主题餐厅(南山大道店)",
      "location": "深圳市南山大道3106号",
      "coordinate": "113.923751,22.544249",
      "formattedAddress": "广东省深圳市南山区南山大道3106号"
    },
    {
      "city": "深圳市",
      "district": "南山区",
      "name": "耶尼亚餐厅Bombay Indain Cuisine印度餐厅",
      "location": "深圳市海上世界商铺20-24号",
      "coordinate": "113.917012,22.483009",
      "formattedAddress": "广东省深圳市南山区海上世界"
    },
    {
      "city": "深圳市",
      "district": "南山区",
      "name": "Doors\r\n",
      "location": "深圳市蛇口海上世界船前广场DOORS多思西餐厅",
      "coordinate": "113.915686,22.483071",
      "formattedAddress": "广东省深圳市南山区doors多思西餐厅"
    },
    {
      "city": "深圳市",
      "district": "南山区",
      "name": "莲香西域（大学城店）",
      "location": "南山区平山一路西丽大学城大园工业园11栋B-6号",
      "phone": 18038008507,
      "intro": "新疆菜",
      "privateRoom": "有大包",
      "businessHours": "10:00-23:00",
      "traffic": "地铁：5号线大学城站B出口800m",
      "coordinate": "113.970200,22.584279",
      "formattedAddress": "广东省深圳市南山区大园工业园|11栋"
    },
    {
      "city": "深圳市",
      "district": "南山区",
      "name": "老西北清真餐厅",
      "location": "南山区南山大道桂庙路口1132号",
      "coordinate": "113.922311,22.523180",
      "formattedAddress": "广东省深圳市南山区南山大道桂庙路口"
    },
    {
      "city": "深圳市",
      "district": "南山区",
      "name": "中发源清真餐厅(南油店)",
      "location": "深圳市南海大道与登良路交汇处，百富大厦1-2层",
      "phone": "0755-26487483",
      "intro": "中发源清真餐厅(南油店)",
      "coordinate": "113.925420,22.510479",
      "formattedAddress": "广东省深圳市南山区百富大厦"
    },
    {
      "city": "深圳市",
      "district": "南山区",
      "name": "郏县饸饹面西丽店",
      "location": "深圳市石鼓路4004号",
      "intro": "郏县饸饹面西丽店",
      "coordinate": "113.948289,22.585220",
      "formattedAddress": "广东省深圳市南山区石鼓路4004号"
    },
    {
      "city": "深圳市",
      "district": "南山区",
      "name": "中发源•清真餐厅（万科云城店）",
      "location": "南山区打石二路万科云城2期",
      "intro": "中发源•清真餐厅（万科云城店）",
      "coordinate": "113.942644,22.574245",
      "formattedAddress": "广东省深圳市南山区打石二路万科云城2期"
    },
    {
      "city": "深圳市",
      "district": "南山区",
      "name": "西域夜猫子烧烤",
      "location": "南山区南光村商业街38号",
      "phone": 13713771661,
      "intro": "西域夜猫子烧烤",
      "coordinate": "113.928176,22.516570",
      "formattedAddress": "广东省深圳市南山区南光村商业街"
    },
    {
      "city": "深圳市",
      "district": "南山区",
      "name": "阿布都穆斯林烤羊肉串(东滨店)",
      "location": "南山区招商街道四海社区四海路27号紫竹园商铺134",
      "intro": "阿布都穆斯林烤羊肉串(东滨店)",
      "traffic": "2号线：海月站1.3km 公交：南门一坊站200m",
      "coordinate": "113.925553,22.504061",
      "formattedAddress": "广东省深圳市南山区紫竹园"
    },
    {
      "city": "深圳市",
      "district": "南山区",
      "name": "沙瓦吉（海上世界）",
      "location": "深圳南山区蛇口海上世界中心广场国际酒吧街内，南山宾馆113B2号铺沙瓦吉",
      "phone": 17796365848,
      "coordinate": "113.915456,22.483603",
      "formattedAddress": "广东省深圳市南山区南山宾馆"
    },
    {
      "city": "深圳市",
      "district": "南山区",
      "name": "阿布都兄弟烧烤（海雅店）",
      "location": "深圳市南山区南海大道2702号保利大厦",
      "intro": "老板宁夏人，店里主要有羊肉串、肉饼、凉皮、凉拌菜",
      "traffic": "地铁：9号线南山书城站A出口步行500米",
      "coordinate": "113.927760,22.515422",
      "formattedAddress": "广东省深圳市南山区保利大厦"
    },
    {
      "city": "深圳市",
      "district": "南山区",
      "name": "羊铃铛烧烤（南山店）",
      "location": "南山区南山大道1091号",
      "intro": "烧烤，大盘鸡",
      "traffic": "地铁：11号线南山站D出口650m",
      "coordinate": "113.922092,22.518911",
      "formattedAddress": "广东省深圳市南山区南山大道1091号"
    },
    {
      "city": "深圳市",
      "district": "南山区",
      "name": "中发源清真餐厅（宝能城店）",
      "location": "南山区留仙大道宝能城环球汇C馆二楼宝能影城斜对面",
      "phone": "0755-86708663",
      "privateRoom": "有",
      "traffic": "地铁：5号线塘朗站C口50m",
      "coordinate": "113.999258,22.591273",
      "formattedAddress": "广东省深圳市南山区留仙大道宝能城环球汇宝能影城(西丽宝能环球汇店)"
    },
    {
      "city": "深圳市",
      "district": "南山区",
      "name": "哎米尔西北特色小吃",
      "location": "南山区南侨路43号南侨花园门口",
      "phone": 13266542201,
      "intro": "西北特色面点，民族炒菜，烧烤，新推流汁宽粉",
      "privateRoom": "无",
      "businessHours": "早10点至晚11点",
      "traffic": "地铁：1号线桃源站D出口500米",
      "coordinate": "113.925464,22.530174",
      "formattedAddress": "广东省深圳市南山区南侨花园"
    },
    {
      "city": "深圳市",
      "district": "南山区",
      "name": "西域邱记椒麻鸡",
      "location": "南山区粤海街道科技园社区科伟路6号科技园34区9栋",
      "phone": 13049851420,
      "coordinate": "113.946967,22.547460",
      "formattedAddress": "广东省深圳市南山区科技园34区"
    },
    {
      "city": "深圳市",
      "district": "南山区",
      "name": "小回帽·清真餐饮",
      "location": "南山区深南大道先健科技大厦B1-09",
      "phone": 18588455542,
      "intro": "各种招牌面",
      "traffic": "地铁：1号线高新园站D出口600m",
      "coordinate": "113.957298,22.538797",
      "formattedAddress": "广东省深圳市南山区先健科技大厦"
    },
    {
      "city": "深圳市",
      "district": "南山区",
      "name": "伊赛牛肉火锅烤肉店",
      "location": "南山区学府路新德家园",
      "phone": 18194041898,
      "traffic": "地铁：1号线大新站C2出口700m",
      "coordinate": "113.914705,22.529421",
      "formattedAddress": "广东省深圳市南山区新德家园"
    },
    {
      "city": "深圳市",
      "district": "南山区",
      "name": "黑公羊西域餐厅",
      "location": "南山区公园南路荣村工业小区3栋111号",
      "phone": "0755 8827 5232",
      "intro": "主营新疆菜，烧烤，有两个半开放包间可坐10人",
      "businessHours": "早10点至凌晨3点",
      "traffic": "地铁：2号线水湾站C出口200m",
      "coordinate": "113.924761,22.486775",
      "formattedAddress": "广东省深圳市南山区工业小区|3栋"
    },
    {
      "city": "深圳市",
      "district": "南山区",
      "name": "古牧西羊新疆味道（蛇口店）",
      "location": "南山区蛇口兰园大厦145号",
      "phone": 18112366645,
      "traffic": "地铁：9号线南油站F2出口720m",
      "coordinate": "113.927750,22.504500",
      "formattedAddress": "广东省深圳市南山区兰园"
    },
    {
      "city": "深圳市",
      "district": "南山区",
      "name": "可可托海清真餐厅",
      "location": "南山区西丽街道打石一路深圳国际创新谷8栋142号",
      "phone": "李总 13899809465",
      "intro": "主营新疆菜和烧烤",
      "traffic": "地铁：5/7号线西丽站A出口",
      "coordinate": "113.944706,22.572854",
      "formattedAddress": "广东省深圳市南山区西丽街道打石一路深圳国际创新谷"
    },
    {
      "city": "深圳市",
      "district": "南山区",
      "name": "巴依老爷新疆食府",
      "location": "南山区南山大道中兴之家",
      "phone": 13682435788,
      "traffic": "地铁：11号线南山站H出口500m",
      "coordinate": "113.923108,22.526761",
      "formattedAddress": "广东省深圳市南山区中兴之家"
    },
    {
      "city": "深圳市",
      "district": "南山区",
      "name": "Turquoise Shisha Bar",
      "location": "南山区招商街道工业2路蛇口海山世界广场A区3栋",
      "intro": "土耳其菜，印巴菜",
      "traffic": "地铁:2号线海上世界站A出口285m",
      "coordinate": "113.922618,22.506127",
      "formattedAddress": "广东省深圳市南山区世界广场"
    },
    {
      "city": "深圳市",
      "district": "南山区",
      "name": "清真盛园泥炉烤肉",
      "location": "南山区桃源街道丽山路商业街2号",
      "intro": "东北菜；烤肉",
      "businessHours": "11：:30-14：:00；17：:00-01：:00",
      "traffic": "地铁：5号线大学城站C出口320米",
      "coordinate": "113.964955,22.583852",
      "formattedAddress": "广东省深圳市南山区丽山路商业街"
    },
    {
      "city": "深圳市",
      "district": "龙岗区",
      "name": "深圳市龙岗清真寺",
      "location": "深圳市龙岗区植物园路341号",
      "traffic": "公交：坂田西站",
      "coordinate": "114.266260,22.715302",
      "formattedAddress": "广东省深圳市龙岗区植物园路341号"
    },
    {
      "city": "深圳市",
      "district": "龙岗区",
      "name": "华为九碗十三花",
      "location": "广东省龙岗区坂田华为总部B区B3餐厅2楼",
      "intro": "清真菜、烤全羊",
      "coordinate": "114.057571,22.656954",
      "formattedAddress": "广东省深圳市龙岗区华为总部"
    },
    {
      "city": "深圳市",
      "district": "龙岗区",
      "name": "伊品膳清真餐饮,麻辣烫系列",
      "location": "广东省深圳市龙岗区宝龙四路国家集成电路安博园2栋108",
      "phone": 17724682290,
      "intro": "17724685517 清真麻辣汤,炒菜,拉面系列等",
      "coordinate": "114.297772,22.690991",
      "formattedAddress": "广东省深圳市龙岗区宝龙四路"
    },
    {
      "city": "深圳市",
      "district": "龙岗区",
      "name": "泥炉烤肉",
      "location": "龙岗区华南城舌尖美食广场2栋114号",
      "coordinate": "114.129546,22.676009",
      "formattedAddress": "广东省深圳市龙岗区舌尖美食广场|2栋"
    },
    {
      "city": "深圳市",
      "district": "龙岗区",
      "name": "伊纳其新疆主题餐厅",
      "location": "龙岗中心城龙潭路221号",
      "coordinate": "114.240193,22.723933",
      "formattedAddress": "广东省深圳市龙岗区龙潭路|221号"
    },
    {
      "city": "深圳市",
      "district": "龙岗区",
      "name": "西北风味餐厅",
      "location": "龙岗区吉华路247号",
      "phone": 15323828307,
      "intro": "西北特色菜，手抓，烧烤，包子，羊肉串",
      "traffic": "地铁:5号线下水径C口对面",
      "coordinate": "114.110624,22.613928",
      "formattedAddress": "广东省深圳市龙岗区吉华路|247"
    },
    {
      "city": "深圳市",
      "district": "龙岗区",
      "name": "沙枣花儿滋补火锅",
      "location": "广东省深圳市龙岗区龙岗大道2288号沙枣花儿滋补火锅",
      "traffic": "地铁:3号线吉祥站A口350米",
      "coordinate": "114.242602,22.706545",
      "formattedAddress": "广东省深圳市龙岗区龙岗大道2288号"
    },
    {
      "city": "深圳市",
      "district": "龙岗区",
      "name": "新疆火焰山清真烧烤",
      "location": "深圳市龙岗区坂田街道永香西路22号",
      "phone": 15569236085,
      "intro": "各类烧烤，大盘鸡，水饺",
      "businessHours": "16：30_3：00",
      "traffic": "阳光湾畔公交站，五和地铁站b 出口直行300米",
      "coordinate": "114.065414,22.620757",
      "formattedAddress": "广东省深圳市龙岗区坂田街道永香西路22号"
    },
    {
      "city": "深圳市",
      "district": "龙岗区",
      "name": "聚德福清真餐厅",
      "location": "龙岗区布吉街道白鸽路南城购物广场116-2",
      "phone": 13480900699,
      "intro": "新疆，西北风味",
      "privateRoom": "有，最大可容12人",
      "businessHours": "9:00-23：30",
      "traffic": "地图：3号线布吉站B口450m",
      "coordinate": "114.121739,22.598369",
      "formattedAddress": "广东省深圳市龙岗区南城购物广场"
    },
    {
      "city": "深圳市",
      "district": "龙岗区",
      "name": "新疆羊八郎音乐餐厅",
      "location": "龙岗区南联罗瑞合南街瑞合丰收大厦6009号",
      "phone": 1.5809056242186e+21,
      "intro": "新疆菜，土火锅，丸子汤，大盘鸡，抓饭 羊排，烤包子，手抓饭，沙滩羊排",
      "traffic": "地铁：3号线南联站出口",
      "coordinate": "114.268884,22.725328",
      "formattedAddress": "广东省深圳市龙岗区瑞合丰收大厦"
    },
    {
      "city": "深圳市",
      "district": "龙岗区",
      "name": "西安老面家",
      "location": "龙岗区石排村长发西路32-2号",
      "intro": "老板宝鸡人，biangbiang面",
      "traffic": "地铁：5号线五和站D2出口750m",
      "coordinate": "114.057619,22.630773",
      "formattedAddress": "广东省深圳市龙岗区长发西路|32号|-2号"
    },
    {
      "city": "深圳市",
      "district": "龙岗区",
      "name": "西安老面馆",
      "location": "龙岗区坂田街道杨美社区长坑区1巷15-1-1号",
      "intro": "面点",
      "traffic": "地铁：5号线五和站C1出口460m",
      "coordinate": "114.061521,22.627628",
      "formattedAddress": "广东省深圳市龙岗区坂田街道杨美社区街道长坑1巷"
    },
    {
      "city": "深圳市",
      "district": "龙岗区",
      "name": "吉宝羱手工面",
      "location": "龙岗区坂田街道五和大道4012号",
      "traffic": "地铁:5号线",
      "coordinate": "114.059381,22.662436",
      "formattedAddress": "广东省深圳市龙岗区坂田街道五和大道4012号"
    },
    {
      "city": "深圳市",
      "district": "宝安区",
      "name": "沙井镇清真寺",
      "location": "深圳宝安区沙井镇创新路锦驰创新201",
      "phone": 13530005916,
      "traffic": "地铁：11号线沙井站下(嘉华天桥公交站)乘坐M341沙井西部义乌商贸城向西创新路,锦驰创新城201",
      "coordinate": "113.834669,22.730921",
      "formattedAddress": "广东省深圳市宝安区沙井镇创新路创新(足上星店)"
    },
    {
      "city": "深圳市",
      "district": "宝安区",
      "name": "宝安清真寺",
      "location": "宝安区西乡街道宝安农批市场五楼501号",
      "traffic": "公交：宝安农批市场站",
      "coordinate": "113.875615,22.588066",
      "formattedAddress": "广东省深圳市宝安区宝安农批市场"
    },
    {
      "city": "深圳市",
      "district": "宝安区",
      "name": "艾优卜清真水饺",
      "location": "宝安区沙井街道南环路华丰科技园",
      "phone": 13922856231,
      "intro": "清真牛肉速冻水饺,服务拉面餐厅,和清真食堂供应",
      "traffic": "地铁:11号马鞍下车653路公交(闳辉科技园下车:",
      "coordinate": "113.879339,22.566477",
      "formattedAddress": "广东省深圳市宝安区沙井街道华丰科技园"
    },
    {
      "city": "深圳市",
      "district": "宝安区",
      "name": "穆斯林兄弟烤肉",
      "location": "沙井京基百纳北门",
      "coordinate": "113.807434,22.728434",
      "formattedAddress": "广东省深圳市宝安区沙井京基百纳"
    },
    {
      "city": "深圳市",
      "district": "宝安区",
      "name": "大漠新疆特色美食",
      "location": "宝安区24区岭下花园怡园路4078-1",
      "phone": "17576002299/18613140978",
      "intro": "主要经营新疆特色菜，烧烤，面食，已搬到南山",
      "traffic": "地铁5号线洪浪北，灵芝站，前往一公里",
      "coordinate": "113.899175,22.581608",
      "formattedAddress": "广东省深圳市宝安区宝安区24区岭下花园怡园路4078-1号"
    },
    {
      "city": "深圳市",
      "district": "宝安区",
      "name": "巴沙尔精品牛羊杂，三黄鸡",
      "location": "宝安区新安街道兴华一路43号",
      "phone": 15103099206,
      "coordinate": "113.896040,22.556700",
      "formattedAddress": "广东省深圳市宝安区新安街道兴华一路43号"
    },
    {
      "city": "深圳市",
      "district": "宝安区",
      "name": "大巴扎餐厅",
      "location": "宝安区新瑞路后瑞新瑞一区一巷1号\r\n",
      "intro": "新疆菜",
      "traffic": "5号线：后瑞地地铁站B口600m",
      "coordinate": "113.834292,22.632973",
      "formattedAddress": "广东省深圳市宝安区瑞新瑞一区一巷|1号"
    },
    {
      "city": "深圳市",
      "district": "宝安区",
      "name": "怒海烧烤麻辣烫",
      "location": "宝安区创业二路群辉路8号",
      "phone": 13993041926,
      "intro": "麻辣烫",
      "businessHours": "14:30-02:00",
      "traffic": "地铁：5号线兴东站C出口300m",
      "coordinate": "113.920725,22.583979",
      "formattedAddress": "广东省深圳市宝安区创业二路群辉路8号"
    },
    {
      "city": "深圳市",
      "district": "宝安区",
      "name": "阿斯塔纳新鲜羊肉串•烤全羊•羊肉铜锅火锅（固戍店）\r\n",
      "location": "宝安区西乡街道固戍富通V都会瑞翔居125号（固戍地铁站C出口，上围园社区健康服务中心旁",
      "phone": 19926803910,
      "intro": "新疆菜，火锅",
      "traffic": "地铁:1号线固戍站C出口700m",
      "coordinate": "113.852163,22.603960",
      "formattedAddress": "广东省深圳市宝安区瑞翔居"
    },
    {
      "city": "深圳市",
      "district": "宝安区",
      "name": "西北特色美食坊",
      "location": "宝安区航城街道后瑞社区新瑞路19号",
      "intro": "各种热菜凉菜",
      "traffic": "地铁：1号线后瑞站B出口300m",
      "coordinate": "113.834093,22.631963",
      "formattedAddress": "广东省深圳市宝安区航城街道后瑞社区新瑞路19号"
    },
    {
      "city": "深圳市",
      "district": "宝安区",
      "name": "青海美味羊肉串",
      "location": "宝安区裕安二路125-2号",
      "phone": 15003667255,
      "traffic": "地铁:5号线洪浪北站C出口629m",
      "coordinate": "113.906127,22.577200",
      "formattedAddress": "广东省深圳市宝安区裕安二路125-10号"
    },
    {
      "city": "深圳市",
      "district": "宝安区",
      "name": "新疆大乌苏烤肉",
      "location": "宝安区西乡街道悦和路7-25",
      "phone": 18819057558,
      "intro": "新疆烧烤",
      "traffic": "地铁:1号线西乡站C出口970m",
      "coordinate": "113.856901,22.570046",
      "formattedAddress": "广东省深圳市宝安区悦和路|7|25"
    },
    {
      "city": "深圳市",
      "district": "宝安区",
      "name": "疆羊大道炭烤鲜羊肉",
      "location": "宝安区新圳西路27号（华润万家对面 海雅缤纷城）",
      "phone": 17693769996,
      "traffic": "地铁:5号线A1出口1200m 公交：甲安村站330m",
      "coordinate": "113.906122,22.559663",
      "formattedAddress": "广东省深圳市宝安区海雅缤纷城"
    },
    {
      "city": "深圳市",
      "district": "宝安区",
      "name": "萨马新疆羊肉串",
      "location": "宝安区新湖路86号",
      "coordinate": "113.866699,22.572395",
      "formattedAddress": "广东省深圳市宝安区新湖路86号"
    },
    {
      "city": "深圳市",
      "district": "龙华区",
      "name": "豫东全羊汤馆",
      "location": "深圳市建达路58号",
      "phone": 13714013911,
      "privateRoom": "有包间可接聚会",
      "businessHours": "10:00－22:00",
      "coordinate": "114.026548,22.652730",
      "formattedAddress": "广东省深圳市龙华区建达路58号"
    },
    {
      "city": "深圳市",
      "district": "龙华区",
      "name": "回味斋清真餐厅(东泉新村店）",
      "location": "广东省深圳市龙华区民塘路",
      "traffic": "弘阳酒店旁边",
      "coordinate": "114.029482,22.618967",
      "formattedAddress": "广东省深圳市龙华区民塘路"
    },
    {
      "city": "深圳市",
      "district": "龙华区",
      "name": "阿峰包子铺",
      "location": "民治大道542号智慧谷创新广场一楼12铺",
      "phone": "13725522600 23578980",
      "intro": "主要经营 包子 粉面 羊杂汤 豆腐脑",
      "traffic": "公交站：牛栏前100m",
      "coordinate": "114.037538,22.631912",
      "formattedAddress": "广东省深圳市龙华区民治大道542号智慧谷创新广场(民治大道)"
    },
    {
      "city": "深圳市",
      "district": "龙华区",
      "name": "王中华羊汤烩面馆",
      "location": "龙华区清湖新村西一巷10",
      "traffic": "地铁:4号线清湖站1.5km",
      "coordinate": "114.038821,22.653189",
      "formattedAddress": "广东省深圳市龙华区清湖龙华新村"
    },
    {
      "city": "深圳市",
      "district": "龙华区",
      "name": "莲香西域（龙华店）",
      "location": "龙华区景龙中环路大信花园3栋龙发路217号",
      "phone": 18038008507,
      "intro": "新疆菜",
      "privateRoom": "有大包间",
      "businessHours": "10:00-23:00",
      "traffic": "地铁:4号线龙华站D出口220m",
      "coordinate": "114.021820,22.650166",
      "formattedAddress": "广东省深圳市龙华区景龙中环路大信花园(中环路)龙发一路217号"
    },
    {
      "city": "深圳市",
      "district": "龙华区",
      "name": "老門框爆肚涮肉馆(民治店)",
      "location": "民治街道民治社区民治大道342号1881MALL大厦107",
      "phone": "0755-21083686",
      "intro": "涮羊肉，老北京小吃。（感觉羊肉挺新鲜，素菜少，牛羊肉多，都挺新鲜的）",
      "privateRoom": "有",
      "businessHours": "10:00-24:00",
      "traffic": "地铁:5号线民治地铁站D出口770m",
      "coordinate": "114.039742,22.623693",
      "formattedAddress": "广东省深圳市龙华区民治街道民治社区民治大道342号1881mall号"
    },
    {
      "city": "深圳市",
      "district": "龙华区",
      "name": "清真似路茗羊",
      "location": "深圳市龙华区塘水围二区73栋1314号",
      "phone": 18476558887,
      "intro": "铜锅涮羊肉·特色烤串",
      "traffic": "地铁:5号线民治站D出口1200m",
      "coordinate": "114.036518,22.625489",
      "formattedAddress": "广东省深圳市龙华区塘水围|73栋"
    },
    {
      "city": "深圳市",
      "district": "龙华区",
      "name": "新疆特色羊肉串烧烤",
      "location": "深圳市龙华区美丽家园南区1栋112-113商铺",
      "intro": "新疆烧烤",
      "traffic": "地铁:4号线清湖站C1口1000m 公交：",
      "coordinate": "114.019892,22.653248",
      "formattedAddress": "广东省深圳市龙华区美丽家园南区|第1栋"
    },
    {
      "city": "深圳市",
      "district": "龙华区",
      "name": "伊麦儿烘焙",
      "location": "深圳市龙华区建通路25号",
      "traffic": "地铁:4号线龙华站A出口800m",
      "coordinate": "114.028630,22.652128",
      "formattedAddress": "广东省深圳市龙华区建通路"
    },
    {
      "city": "深圳市",
      "district": "龙华区",
      "name": "189香辣虾",
      "location": "深圳市龙华区龙华街道富康社区清泉路12-2号",
      "phone": 13641478841,
      "traffic": "迪特：4号线清湖站D出口1500m",
      "coordinate": "114.029171,22.670145",
      "formattedAddress": "广东省深圳市龙华区清泉路|12号"
    },
    {
      "city": "深圳市",
      "district": "龙华区",
      "name": "东来顺（上河坊清真店）",
      "location": "深圳市龙华区民治街道书香门第上河坊购物乐园（海底捞旁边）",
      "phone": "0755-21009969",
      "intro": "火锅",
      "traffic": "地铁:4号线民乐站A出口450m",
      "coordinate": "114.047262,22.596743",
      "formattedAddress": "广东省深圳市龙华区购物乐园"
    },
    {
      "city": "深圳市",
      "district": "宝安区",
      "name": "光明清真寺",
      "location": "广东省深圳市光明区光侨路",
      "coordinate": "113.891361,22.720827",
      "formattedAddress": "广东省深圳市宝安区光侨路"
    },
    {
      "city": "东莞市",
      "district": [],
      "name": "河西走廊清真餐厅",
      "location": "光明新区花亭酒店西50米（碧园路西）",
      "phone": "0755-23400183",
      "coordinate": "113.814621,23.101507",
      "formattedAddress": "广东省东莞市光明乡东方酒店"
    },
    {
      "city": "东莞市",
      "district": [],
      "name": "天山牧歌清真餐厅",
      "location": "东莞市东城区火炼树社区银树路泰和商业街2栋1楼102号",
      "phone": "0769-22299189\r\n13549341234",
      "coordinate": "113.762870,22.997834",
      "formattedAddress": "广东省东莞市泰和商业街|2栋"
    },
    {
      "city": "东莞市",
      "district": [],
      "name": "伊兰河湟清真餐厅",
      "location": "东莞市东城区金泽花园b2铺",
      "phone": 18097489499,
      "coordinate": "113.770972,23.032990",
      "formattedAddress": "广东省东莞市金泽花园|B|2"
    },
    {
      "city": "东莞市",
      "district": [],
      "name": "东莞中发源（虎门万达店）",
      "location": "东莞市虎门镇连升北路万达广场四楼4006铺",
      "phone": "0769-88022418",
      "coordinate": "113.683383,22.833957",
      "formattedAddress": "广东省东莞市万达广场"
    },
    {
      "city": "东莞市",
      "district": [],
      "name": "东莞中发源（国贸中心店）",
      "location": "东莞市鸿福路国贸城5号楼4009B",
      "phone": "0769-27239369",
      "coordinate": "113.746531,23.015888",
      "formattedAddress": "广东省东莞市鸿福路"
    }
  ]
}
